City,Cloudiness,Country,Date,Humidity,Lat,Lng,Max Temp,Wind Speed
Arlit,61,NE,1632287522,17,18.7369,7.3853,86.45,9.33
Hithadhoo,98,MV,1632287522,76,-0.6,73.0833,82.9,15.05
Rikitea,0,PF,1632287523,72,-23.1203,-134.9692,73.85,15.32
Chokurdakh,97,RU,1632287523,54,70.6333,147.9167,38.93,9.28
Imbituba,100,BR,1632287524,75,-28.24,-48.6703,58.89,12.35
Albany,100,US,1632287524,90,42.6001,-73.9662,64.31,4.94
Severo-Kuril'sk,83,RU,1632287524,75,50.6789,156.125,51.91,11.12
Kapaa,40,US,1632287525,74,22.0752,-159.319,82.38,5.01
Avarua,40,CK,1632287525,73,-21.2078,-159.775,77.05,3.44
Codrington,69,AU,1632287525,69,-38.2667,141.9667,60.39,15.19
New Norfolk,11,AU,1632287526,47,-42.7826,147.0587,72.75,5.99
Jacareacanga,93,BR,1632287526,55,-6.2222,-57.7528,76.03,1.52
Port Hardy,100,CA,1632287527,99,50.6996,-127.4199,53.44,5.14
Naze,93,JP,1632287527,69,28.3667,129.4833,82.24,7.09
Mahébourg,10,MU,1632287527,58,-20.4081,57.7,75.25,13.85
San Vicente,100,AR,1632287528,78,-26.6167,-54.1333,53.67,6.44
Banyo,100,CM,1632287528,99,6.75,11.8167,65.26,1.61
Mankono,100,CI,1632287529,97,8.0586,-6.1897,70.18,3.76
Kiryat Gat,0,IL,1632287529,100,31.61,34.7642,78.4,4.9
Longyearbyen,40,SJ,1632287530,70,78.2186,15.6401,40.84,18.41
Souillac,9,MU,1632287530,61,-20.5167,57.5167,75.36,13.18
Maningrida,61,AU,1632287530,25,-12.0667,134.2667,92.98,13.2
Hermanus,2,ZA,1632287531,84,-34.4187,19.2345,52.9,13.65
Qaanaaq,0,GL,1632287531,70,77.484,-69.3632,8.13,9.24
Geraldton,0,AU,1632287532,8,-28.7667,114.6,90.01,5.75
Shimoda,65,JP,1632287532,74,34.6667,138.95,82.26,10.76
Jamestown,90,US,1632287431,98,42.097,-79.2353,67.59,5.99
Norman Wells,83,CA,1632287533,83,65.282,-126.8329,38.21,7.2
Isangel,80,VU,1632287533,69,-19.55,169.2667,78.55,7.43
Kyren,100,RU,1632287533,81,51.6828,102.1408,43.25,3.91
Mumford,100,GH,1632287534,90,5.2618,-0.759,75.65,8.21
Tiksi,100,RU,1632287534,74,71.6872,128.8694,36.25,5.97
Saint George,1,US,1632287535,22,37.1041,-113.5841,73.99,0.0
Oga,43,IT,1632287535,63,46.4631,10.347,43.68,5.3
Barrow,75,US,1632287473,80,71.2906,-156.7887,30.22,14.97
Laguna,1,US,1632287536,49,38.421,-121.4238,82.24,0.0
Kamina,35,CD,1632287536,26,-8.7386,24.9906,68.86,4.81
Matamoros,95,MX,1632287536,71,25.5333,-103.25,69.42,10.51
Atuona,8,PF,1632287537,74,-9.8,-139.0333,78.06,20.51
Port Alfred,1,ZA,1632287537,70,-33.5906,26.891,57.69,9.22
Assaré,12,BR,1632287538,58,-6.8744,-39.875,73.35,3.62
Hasaki,85,JP,1632287538,79,35.7333,140.8333,84.6,18.34
Bluff,12,NZ,1632287538,69,-46.6,168.3333,53.8,15.9
Pevek,99,RU,1632287539,72,69.7008,170.3133,28.26,11.14
Thompson,100,CA,1632287539,74,55.7435,-97.8558,41.23,5.06
Sambava,9,MG,1632287540,67,-14.2667,50.1667,74.08,10.67
Windhoek,3,NA,1632287540,18,-22.5594,17.0832,62.11,3.0
Ostrovnoy,2,RU,1632287540,78,68.0531,39.5131,37.67,13.47
Westport,90,US,1632287322,94,41.1415,-73.3579,73.15,3.0
Tegul'det,100,RU,1632287541,98,57.3064,88.1667,35.56,5.99
Faya,81,SA,1632287541,33,18.3851,42.4509,66.72,7.76
Cherskiy,100,RU,1632287542,44,68.75,161.3,36.03,8.08
Naryan-Mar,55,RU,1632287542,77,67.6713,53.087,40.68,5.97
Shelburne,100,CA,1632287543,98,44.0787,-80.2041,64.76,2.73
Hilo,90,US,1632287532,88,19.7297,-155.09,74.8,8.05
Ponta do Sol,100,PT,1632287543,71,32.6667,-17.1,72.23,7.23
Puerto Ayora,35,EC,1632287543,88,-0.7393,-90.3518,68.27,7.94
Madera,0,US,1632287544,18,37.1666,-119.8343,80.42,6.15
Barra de Tecoanapa,35,MX,1632287544,84,16.5167,-98.75,79.56,4.21
Ayan,15,RU,1632287545,51,56.45,138.1667,52.74,6.02
Mar del Plata,20,AR,1632287480,100,-38.0023,-57.5575,39.22,3.44
Busselton,0,AU,1632287545,54,-33.65,115.3333,81.05,5.32
Khasan,56,RU,1632287546,67,42.4308,130.6434,71.74,11.48
Saint Paul Harbor,1,US,1632287546,34,57.79,-152.4072,45.91,16.11
Maceió,40,BR,1632287546,100,-9.6658,-35.7353,72.84,3.44
Punta Arenas,0,CL,1632287547,87,-53.15,-70.9167,46.51,3.44
Mataura,8,NZ,1632287547,57,-46.1927,168.8643,53.47,4.14
Ribeira Grande,24,PT,1632287548,79,38.5167,-28.7,71.01,13.73
Manadhoo,22,MV,1632287548,76,5.7667,73.3833,83.73,16.75
Kalmunai,70,LK,1632287548,60,7.4167,81.8167,87.71,4.05
Salalah,20,OM,1632287549,70,17.0151,54.0924,84.29,5.75
Togur,73,RU,1632287549,72,58.3631,82.8265,38.25,4.68
Iberia,75,US,1632287549,88,29.9502,-91.7507,78.96,21.85
Sinop Province,100,TR,1632287550,93,41.7711,34.8709,52.23,4.63
Moindou,94,NC,1632287550,64,-21.6924,165.677,78.75,10.65
Hobart,20,AU,1632287356,46,-42.8794,147.3294,73.11,14.97
East London,21,ZA,1632287551,66,-33.0153,27.9116,57.07,6.49
San Miguel de Tucumán,75,AR,1632287551,94,-26.8241,-65.2226,57.2,0.0
Lodja,88,CD,1632287552,86,-3.4833,23.4333,71.55,1.79
Abaza,100,RU,1632287553,45,52.655,90.0928,47.17,5.39
Provideniya,40,RU,1632287554,60,64.3833,-173.3,35.71,8.95
Klaksvík,75,FO,1632287554,74,62.2266,-6.589,49.12,36.55
São Filipe,8,CV,1632287554,81,14.8961,-24.4956,78.57,9.01
Loíza,40,PR,1632287555,89,18.4313,-65.8802,80.58,5.75
Yantal',88,RU,1632287555,73,56.8471,105.2542,44.4,9.1
Tasiilaq,35,GL,1632287556,54,65.6145,-37.6368,32.16,8.86
Sardulgarh,84,IN,1632287556,55,29.7,75.25,90.07,9.06
Minzhu,100,CN,1632287557,97,43.7286,127.3447,54.59,6.2
Mutsu,63,JP,1632287557,70,41.2894,141.2169,74.12,5.82
Hirado,0,JP,1632287557,70,33.3597,129.5531,77.38,10.96
Cape Town,1,ZA,1632287558,67,-33.9258,18.4232,53.11,5.48
Nuuk,90,GL,1632287558,74,64.1835,-51.7216,32.61,11.5
Hofn,100,IS,1632287558,62,64.2539,-15.2082,43.7,11.16
Wabag,99,PG,1632287559,85,-5.4781,143.7021,63.5,4.03
Butaritari,91,KI,1632287559,73,3.0707,172.7902,83.19,12.95
Sørland,100,NO,1632287560,90,67.667,12.6934,51.87,51.34
Saint-Philippe,39,RE,1632287560,68,-21.3585,55.7679,74.79,8.84
Talnakh,27,RU,1632287561,66,69.4865,88.3972,37.6,1.07
Beringovskiy,100,RU,1632287561,71,63.05,179.3167,37.17,9.28
George Town,20,MY,1632287561,70,5.4112,100.3354,87.73,8.05
Lengshuijiang,0,CN,1632287562,35,27.6881,111.4294,93.9,3.58
Iwanai,100,JP,1632287562,96,42.9744,140.5089,66.06,7.9
Tura,100,IN,1632287563,78,25.5198,90.2201,78.04,0.74
São José da Coroa Grande,53,BR,1632287563,84,-8.8978,-35.1478,74.43,3.76
Constitución,100,CL,1632287564,80,-35.3333,-72.4167,52.83,6.44
Castro,100,BR,1632287564,95,-24.7911,-50.0119,54.91,9.75
Manokwari,32,ID,1632287564,69,-0.8667,134.0833,83.23,4.41
Muros,14,ES,1632287565,80,42.7762,-9.0603,61.99,14.63
Saldanha,6,ZA,1632287565,53,-33.0117,17.9442,54.72,9.17
Ust'-Omchug,68,RU,1632287566,70,61.15,149.6333,43.77,4.85
Hong Kong,39,HK,1632287312,69,22.2855,114.1577,91.96,1.99
Dikson,99,RU,1632287566,83,73.5069,80.5464,33.6,0.94
Lata,0,PT,1632287567,66,40.1629,-8.3327,64.08,6.62
Esperance,0,AU,1632287567,35,-33.8667,121.9,74.14,4.25
Kruisfontein,5,ZA,1632287567,79,-34.0033,24.7314,49.37,4.76
Cidreira,94,BR,1632287475,73,-30.1811,-50.2056,59.61,7.83
Baykit,100,RU,1632287568,93,61.67,96.37,37.62,6.26
Ancud,0,CL,1632287568,91,-41.8697,-73.8203,42.42,0.51
Ushuaia,90,AR,1632287406,87,-54.8,-68.3,42.46,14.97
Khatanga,100,RU,1632287569,96,71.9667,102.5,34.5,14.32
Balancán,92,MX,1632287569,92,17.8,-91.5333,75.34,3.04
Faanui,15,PF,1632287570,69,-16.4833,-151.75,78.98,3.2
Shājāpur,68,IN,1632287570,87,23.4333,76.2667,77.85,9.17
Lebu,71,CL,1632287571,82,-37.6167,-73.65,50.27,3.91
Amalāpuram,100,IN,1632287571,63,16.5833,82.0167,84.58,7.63
Strezhevoy,60,RU,1632287572,81,60.7333,77.5889,33.78,8.7
São João da Barra,42,BR,1632287572,77,-21.6403,-41.0511,70.66,28.95
Kenai,1,US,1632287572,38,60.5544,-151.2583,43.14,12.66
Bengkulu,50,ID,1632287573,70,-3.8004,102.2655,83.64,8.99
Micheweni,6,TZ,1632287573,77,-4.9667,39.8333,77.72,7.87
Miles City,1,US,1632287574,50,46.4083,-105.8406,56.52,8.05
Poum,85,NC,1632287574,70,-20.2333,164.0167,75.61,11.48
Basco,45,PH,1632287575,76,20.4487,121.9702,84.81,12.93
Zaranj,0,AF,1632287575,16,30.9667,61.8833,84.27,18.72
Havøysund,87,NO,1632287575,76,70.9963,24.6622,45.48,40.89
Kavieng,73,PG,1632287576,72,-2.5744,150.7967,84.27,9.71
Penzance,66,GB,1632287577,86,50.1186,-5.5371,56.41,3.22
Airai,90,TL,1632287578,52,-8.9266,125.4092,69.13,6.91
Flinders,8,AU,1632287578,53,-34.5833,150.8552,67.21,8.99
Los Llanos de Aridane,90,ES,1632287578,79,28.6585,-17.9182,69.55,12.66
Lavrentiya,94,RU,1632287579,65,65.5833,-171.0,32.49,11.14
Yellowknife,90,CA,1632287333,100,62.456,-114.3525,46.92,9.22
Sitka,90,US,1632287579,58,57.0531,-135.33,53.49,16.11
Kununurra,90,AU,1632287362,12,-15.7667,128.7333,84.18,13.8
Manicoré,42,BR,1632287580,73,-5.8092,-61.3003,76.1,2.19
Kamenka,92,RU,1632287580,81,51.3223,42.7678,51.98,3.85
Fortuna,1,US,1632287581,63,40.5982,-124.1573,63.52,0.0
Cheremshan,100,RU,1632287581,46,54.6667,51.5,51.39,14.36
Port Elizabeth,1,ZA,1632287582,78,-33.918,25.5701,53.56,7.47
Acapulco de Juárez,52,MX,1632287313,86,16.8634,-99.8901,79.9,5.14
Grand Gaube,6,MU,1632287582,54,-20.0064,57.6608,75.38,7.0
Tuktoyaktuk,100,CA,1632287582,72,69.4541,-133.0374,35.96,17.6
Arraial do Cabo,94,BR,1632287583,79,-22.9661,-42.0278,69.24,26.46
Katsuura,87,JP,1632287583,80,35.1333,140.3,82.51,16.62
Asău,100,RO,1632287584,83,46.4333,26.4,47.75,4.34
Novopokrovka,88,UA,1632287584,87,49.8425,36.5477,44.98,7.16
Waterloo,90,CA,1632287381,100,43.4668,-80.5164,68.47,13.8
Mosquera,75,CO,1632287409,94,4.7059,-74.2302,53.69,6.91
Kaitangata,5,NZ,1632287585,66,-46.2817,169.8464,53.33,5.46
De-Kastri,100,RU,1632287585,51,51.4667,140.7833,56.08,12.93
Olafsvik,78,IS,1632287586,75,64.8945,-23.7142,38.79,1.66
Lagoa,0,PT,1632287586,80,39.05,-27.9833,69.98,16.64
Axum,15,ET,1632287587,68,14.1245,38.7244,65.25,3.02
Todos Santos,100,MX,1632287587,90,23.45,-110.2167,83.01,3.58
Hualmay,69,PE,1632287588,88,-11.0964,-77.6139,61.43,10.2
Taltal,1,CL,1632287588,84,-25.4,-70.4833,55.33,3.44
Bredasdorp,0,ZA,1632287588,93,-34.5322,20.0403,47.41,5.19
Saint-Pierre,0,RE,1632287589,58,-21.3393,55.4781,74.88,2.3
Mossamedes,7,AO,1632287589,91,-15.1961,12.1522,60.78,4.32
Mareeba,71,AU,1632287590,48,-17.0,145.4333,76.44,8.37
Tessalit,9,ML,1632287590,14,20.1986,1.0114,84.67,8.25
Aklavik,100,CA,1632287591,82,68.2191,-135.0107,32.65,7.63
Moscow,100,RU,1632287363,94,55.7522,37.6156,43.03,6.96
Adrar,2,MR,1632287591,21,20.5022,-10.0711,81.73,12.5
Duluth,1,US,1632287317,85,46.7833,-92.1066,53.35,1.01
Jalu,0,LY,1632287592,30,29.0331,21.5482,79.36,6.98
Zhangjiakou,0,CN,1632287592,42,40.81,114.8794,70.65,2.48
Roquetas de Mar,56,ES,1632287593,62,36.7642,-2.6148,73.4,12.24
Mersing,71,MY,1632287593,60,2.4312,103.8405,87.75,6.89
Saskylakh,100,RU,1632287594,94,71.9167,114.0833,36.36,11.03
Dunedin,7,NZ,1632287344,75,-45.8742,170.5036,51.96,11.74
Pandan,99,PH,1632287594,71,14.0453,124.1694,85.53,3.71
Port Hedland,71,AU,1632287595,7,-20.3167,118.5667,96.85,13.8
Hīt,0,IQ,1632287595,27,33.6416,42.8251,85.75,19.86
Itupiranga,86,BR,1632287595,73,-5.1347,-49.3267,80.92,3.51
Amapá,83,BR,1632287596,99,1.0,-52.0,70.14,0.76
Makakilo City,20,US,1632287596,65,21.3469,-158.0858,79.12,4.61
Daru,66,PG,1632287597,83,-9.0763,143.2092,79.47,14.32
Nikolskoye,98,RU,1632287597,79,59.7035,30.7861,44.49,6.44
Makaha,20,US,1632287598,73,21.4694,-158.2175,80.51,8.05
Gigmoto,94,PH,1632287598,66,13.7796,124.39,86.79,5.91
Luganville,37,VU,1632287598,75,-15.5333,167.1667,80.94,6.96
Poltár,100,SK,1632287599,77,48.4309,19.7941,47.88,2.53
Kiama,7,AU,1632287599,53,-34.6833,150.8667,67.37,9.95
Heraclea,1,TR,1632287600,67,37.5133,34.0467,62.67,3.49
Porto-Novo,100,BJ,1632287600,90,6.4965,2.6036,76.14,3.85
Rocha,41,UY,1632287601,72,-34.4833,-54.3333,52.34,4.83
Kumul,85,CN,1632287601,20,42.8,93.45,76.41,6.04
Broome,40,US,1632287602,85,42.2506,-75.833,66.02,4.0
Batagay,97,RU,1632287602,50,67.6333,134.6333,47.08,2.59
Vaini,40,TO,1632287602,83,-21.2,-175.2,75.36,10.36
Innisfail,84,AU,1632287603,47,-17.5333,146.0333,69.57,11.07
Cabo San Lucas,99,MX,1632287414,83,22.8909,-109.9124,83.52,6.11
Kapra,90,IN,1632287603,100,17.4846,78.561,77.7,3.44
Xinzhi,98,CN,1632287604,32,36.4989,111.7047,85.48,1.45
Verkhnevilyuysk,100,RU,1632287604,60,63.4453,120.3167,53.13,3.96
Dolores Hidalgo Cuna de la Independencia Nacional,58,MX,1632287605,86,21.1561,-100.9308,66.65,7.43
Meulaboh,100,ID,1632287605,70,4.1363,96.1285,82.58,1.9
Mezen',2,RU,1632287606,80,65.8522,44.24,36.86,3.8
Srednekolymsk,83,RU,1632287606,34,67.45,153.6833,40.55,7.56
Leh,61,IN,1632287606,48,34.1667,77.5833,56.32,5.46
Port Blair,90,IN,1632287607,100,11.6667,92.75,77.04,11.5
Santa Isabel Rio Negro,96,BR,1632287607,96,-0.4139,-65.0192,73.22,2.13
Leningradskiy,95,RU,1632287608,85,69.3833,178.4167,23.97,7.76
Sobolevo,100,RU,1632287608,97,54.4299,31.8996,40.89,9.04
Pinega,7,RU,1632287608,79,64.7001,43.3936,36.68,3.18
Bethel,90,US,1632287609,91,41.3712,-73.414,70.38,0.0
Raja,87,SS,1632287609,96,8.4596,25.678,68.56,2.93
Nanortalik,100,GL,1632287610,73,60.1432,-45.2371,36.93,9.89
Ocland,100,RO,1632287610,74,46.1667,25.4167,37.65,0.56
Narsaq,100,GL,1632287611,62,60.9167,-46.05,35.82,7.74
Sistranda,99,NO,1632287611,81,63.7256,8.834,57.9,14.2
Carnarvon,52,AU,1632287612,29,-24.8667,113.6333,80.67,11.5
Fügen,98,AT,1632287612,79,47.35,11.85,52.12,1.59
Havre-St-Pierre,100,CA,1632287612,85,50.2334,-63.5986,54.39,5.37
Mandalī,0,IQ,1632287613,18,33.7499,45.5541,86.61,6.04
Vao,51,NC,1632287613,73,-22.6667,167.4833,72.7,5.08
Custoias,0,PT,1632287614,78,41.1053,-7.321,52.2,5.5
Hella,75,NO,1632287614,77,67.2,14.4333,53.74,17.27
Darhan,99,MN,1632287614,63,49.4867,105.9228,52.75,10.63
Ochamchira,100,GE,1632287615,95,42.7121,41.4721,63.54,1.36
Campbell River,100,CA,1632287615,96,50.0163,-125.2446,54.27,3.42
Zaykovo,81,RU,1632287616,79,57.5613,62.7568,39.56,4.38
Caravelas,6,BR,1632287616,93,-17.7125,-39.2481,71.35,3.09
Clyde River,54,CA,1632287616,78,70.4692,-68.5914,27.09,5.39
Ekibastuz,73,KZ,1632287617,55,51.6667,75.3667,45.03,11.54
Khovd,0,MN,1632287617,32,48.0056,91.6419,48.94,9.08
Chui,95,UY,1632287618,81,-33.6971,-53.4616,54.86,7.9
Ouro Sogui,75,SN,1632287618,76,15.6064,-13.3211,82.63,13.15
Avera,16,US,1632287618,96,33.194,-82.5271,76.87,3.74
Zeya,12,RU,1632287619,29,53.75,127.2667,63.95,2.08
Matara,64,LK,1632287619,67,5.9485,80.5353,86.4,11.99
Cayenne,75,GF,1632287620,81,4.9333,-52.3333,83.08,1.01
Buraidah,13,SA,1632287620,18,26.326,43.975,84.11,3.89
Yabassi,100,CM,1632287621,99,4.457,9.9682,72.66,0.85
Christchurch,40,NZ,1632287443,77,-43.5333,172.6333,55.9,11.01
Aktas,10,KZ,1632287621,48,49.7789,72.9608,44.35,3.22
Nouadhibou,0,MR,1632287622,83,20.931,-17.0347,70.77,18.01
Maiduguri,100,NG,1632287622,82,11.8464,13.1603,75.43,5.01
Hafizabad,39,PK,1632287469,61,32.0679,73.6854,88.11,8.08
Vammala,88,FI,1632287623,90,61.3333,22.9,33.3,3.29
Conceição da Barra,26,BR,1632287623,82,-18.5933,-39.7322,74.97,14.07
Halkirk,97,CA,1632287623,36,52.2834,-112.1518,56.55,10.6
Miyako,4,JP,1632287624,66,39.6367,141.9525,81.07,8.57
Marsaxlokk,40,MT,1632287624,83,35.8419,14.5431,77.61,13.8
Suntar,100,RU,1632287625,87,62.1444,117.6319,43.68,9.22
Morón,0,AR,1632287625,77,-34.6534,-58.6198,54.99,1.01
Marzuq,70,YE,1632287625,39,14.4,46.4667,83.82,0.87
Russell,90,US,1632287626,93,32.3502,-85.1999,74.97,0.0
Houma,0,US,1632287627,90,29.5958,-90.7195,78.8,5.32
Ossora,100,RU,1632287627,86,59.2353,163.0719,49.53,6.42
Vila,2,PT,1632287628,86,42.0304,-8.1588,54.48,3.98
Suket,14,IN,1632287628,75,24.65,76.0333,83.05,4.99
Dingle,89,PH,1632287628,68,10.9995,122.6711,86.23,5.37
Upernavik,100,GL,1632287629,56,72.7868,-56.1549,19.99,5.82
Tacuatí,95,PY,1632287629,80,-23.45,-56.5833,66.81,4.47
Kavaratti,89,IN,1632287630,79,10.5669,72.642,82.09,17.54
Whyalla,19,AU,1632287630,56,-33.0333,137.5833,62.02,7.38
Kozova,100,UA,1632287631,87,49.4354,25.1509,44.08,9.73
Gerāsh,0,IR,1632287631,26,27.6652,54.1371,86.18,3.98
Tabas,4,IR,1632287631,13,33.5959,56.9244,86.65,2.3
Saint-Augustin,97,CA,1632287431,85,51.226,-58.6502,54.0,12.39
Ambilobe,17,MG,1632287632,47,-13.2,49.05,79.7,2.98
Sechura,48,PE,1632287632,85,-5.5569,-80.8222,63.77,10.51
Coyah,98,GN,1632287633,95,9.75,-13.4167,77.45,1.16
Samaná,94,DO,1632287633,93,19.2056,-69.3369,77.77,1.14
Amazar,57,RU,1632287634,49,53.858,120.875,64.92,8.81
Oruzgan,0,AF,1632287412,9,32.8333,66.0,77.54,1.03
Macusani,100,PE,1632287634,77,-14.0833,-70.4333,36.73,1.01
Nome,40,US,1632287635,56,64.5011,-165.4064,35.67,6.91
Tres Arroyos,0,AR,1632287635,88,-38.3739,-60.2798,42.55,9.15
Bac Lieu,92,VN,1632287375,65,9.285,105.7244,86.88,11.18
Oodweyne,18,SO,1632287636,44,9.4092,45.064,78.15,20.56
Rāpar,96,IN,1632287636,62,23.5667,70.6333,86.14,13.67
Senanga,85,ZM,1632287636,23,-16.1167,23.2667,69.26,6.8
Bonthe,77,SL,1632287637,86,7.5264,-12.505,77.36,4.21
Gaoual,74,GN,1632287637,97,11.75,-13.2,74.08,1.99
Shenjiamen,1,CN,1632287638,64,29.9576,122.298,81.07,2.48
Qui Nhon,65,VN,1632287460,77,13.7667,109.2333,83.34,3.36
Boueni,27,YT,1632287638,73,-12.9025,45.0761,78.78,10.74
Eirunepé,84,BR,1632287420,97,-6.6603,-69.8736,72.75,1.59
Berlevåg,20,NO,1632287639,65,70.8578,29.0864,40.95,25.32
Yambio,76,SS,1632287640,95,4.5721,28.3955,67.89,2.04
Lima,75,PE,1632287536,87,-12.0432,-77.0282,58.39,9.22
Buala,30,SB,1632287640,73,-8.145,159.5921,83.32,3.49
Cape Canaveral,1,US,1632287641,92,28.4058,-80.6048,77.99,0.0
Tateyama,85,JP,1632287641,82,34.9833,139.8667,82.42,15.79
Truth or Consequences,1,US,1632287641,31,33.1284,-107.2528,70.03,6.91
Tuatapere,12,NZ,1632287642,60,-46.1333,167.6833,53.82,2.8
La Rioja,100,ES,1632287642,88,42.25,-2.5,48.49,2.55
Gravdal,90,NO,1632287643,93,68.1214,13.5031,51.69,29.93
Kirakira,16,SB,1632287643,74,-10.4544,161.9205,82.83,5.23
Hay River,2,CA,1632287644,90,60.8156,-115.7999,47.71,6.13
Kopavogur,98,IS,1632287644,70,64.1123,-21.913,39.42,9.89
Sabang,100,ID,1632287645,74,5.8933,95.3214,82.22,21.7
Ahwa,97,IN,1632287645,84,20.75,73.6833,77.22,8.12
Alice Springs,12,AU,1632287646,15,-23.7,133.8833,67.55,17.27
Egvekinot,11,RU,1632287646,72,66.3167,-179.1667,22.86,5.17
Broken Hill,74,AU,1632287646,42,-31.95,141.4333,62.56,12.91
Wagar,60,SD,1632287647,61,16.1525,36.2032,82.31,14.88
Hambantota,18,LK,1632287647,62,6.1241,81.1185,88.56,17.49
Sioux Lookout,21,CA,1632287648,74,50.1001,-91.917,44.35,4.41
Richards Bay,100,ZA,1632287648,70,-28.783,32.0377,62.82,7.14
Chāndur,100,IN,1632287649,79,19.7333,79.1833,82.58,7.61
Torbay,0,CA,1632287649,88,47.6666,-52.7314,58.26,5.01
Half Moon Bay,1,US,1632287649,72,37.4636,-122.4286,78.24,0.0
Nyurba,99,RU,1632287650,74,63.2842,118.3319,47.84,6.78
Qaqortoq,100,GL,1632287650,72,60.7167,-46.0333,36.1,8.7
Nova Granada,3,BR,1632287651,70,-20.5339,-49.3142,67.69,17.63
Kulhudhuffushi,38,MV,1632287651,76,6.6221,73.07,83.32,16.44
High Level,100,CA,1632287652,74,58.5169,-117.136,52.57,5.59
Pitimbu,16,BR,1632287653,84,-7.4706,-34.8086,73.99,4.32
Dvinskoy,11,RU,1632287654,73,62.1535,45.1175,38.03,5.95
Harper,69,LR,1632287654,88,4.375,-7.7169,76.68,6.85
Padang,91,ID,1632287655,66,-0.9492,100.3543,85.26,6.31
Tigre,20,AR,1632287655,75,-34.426,-58.5796,55.24,9.22
Alyangula,73,AU,1632287656,49,-13.8483,136.4192,78.1,19.1
Akdepe,7,TM,1632287656,16,42.0551,59.3788,62.6,12.66
Yar-Sale,100,RU,1632287656,97,66.8333,70.8333,37.9,12.1
São Francisco,87,BR,1632287657,34,-15.9486,-44.8644,81.77,3.38
Huarmey,96,PE,1632287657,89,-10.0681,-78.1522,62.29,8.99
Sept-Îles,96,CA,1632287658,95,50.2001,-66.3821,53.06,3.87
Manyana,1,BW,1632287658,13,-23.4,21.7167,55.83,7.38
Umluj,63,SA,1632287659,62,25.0213,37.2685,86.63,2.89
Tanete,99,ID,1632287659,71,-3.9443,119.7848,79.86,7.61
Deputatsky,100,RU,1632287659,59,69.3,139.9,37.15,1.45
Hervey Bay,1,AU,1632287660,54,-25.2986,152.8535,73.51,23.0
Batemans Bay,15,AU,1632287660,52,-35.7167,150.1833,60.91,7.67
Stornoway,75,GB,1632287661,94,58.2093,-6.3865,56.93,11.5
North Bend,1,US,1632287661,90,43.4065,-124.2243,58.86,4.61
Kasongo-Lunda,12,CD,1632287662,80,-6.4667,16.8167,72.48,2.68
Juneau,90,US,1632287662,91,58.3019,-134.4197,48.85,4.61
Praia,20,CV,1632287662,83,14.9215,-23.5087,77.54,16.11
Antsohihy,77,MG,1632287663,46,-14.8796,47.9875,78.46,6.4
Beihai,90,CN,1632287663,72,21.4833,109.1,85.87,9.55
Anchorage,1,US,1632287457,43,61.2181,-149.9003,42.85,1.01
Vanino,100,RU,1632287664,95,49.0869,140.2543,50.45,11.23
Bulgan,97,MN,1632287664,70,48.8125,103.5347,47.88,5.5
Doha,0,QA,1632287665,37,25.2867,51.5333,93.18,8.05
Rafaela,38,AR,1632287665,56,-31.2503,-61.4867,52.05,3.0
Palmer,90,US,1632287665,82,42.1584,-72.3287,66.61,0.0
Evensk,100,RU,1632287666,92,61.95,159.2333,42.37,15.21
Kuito,24,AO,1632287666,30,-12.3833,16.9333,62.47,4.45
Sargatskoye,100,RU,1632287667,96,55.6101,73.4972,37.85,9.13
Maniitsoq,3,GL,1632287668,60,65.4167,-52.9,30.74,9.6
Sergeevka,21,KZ,1632287668,50,53.88,67.4158,47.01,10.83
Ponta Delgada,20,PT,1632287668,77,37.7333,-25.6667,68.72,5.75
Wahiawā,20,US,1632287394,74,21.5028,-158.0236,77.32,8.05
Boende,100,CD,1632287669,96,-0.2167,20.8667,69.62,2.01
Vestmannaeyjar,100,IS,1632287669,71,63.4427,-20.2734,44.94,18.86
Bambanglipuro,73,ID,1632287670,61,-7.95,110.2833,85.23,11.95
The Valley,12,AI,1632287671,77,18.217,-63.0578,84.06,14.32
Saint-Joseph,19,RE,1632287671,65,-21.3667,55.6167,73.78,5.01
Saint-François,90,FR,1632287671,100,46.4154,3.9054,44.47,2.3
Alugan,100,PH,1632287672,72,12.2188,125.4808,84.45,7.18
Lianhe,100,CN,1632287672,97,47.1333,129.2667,51.44,5.86
Dwārka,88,IN,1632287673,79,22.2394,68.9678,82.56,17.36
Honiara,35,SB,1632287673,75,-9.4333,159.95,83.34,1.45
La Santisima Trinidad,34,BO,1632287674,43,-14.8333,-64.9,81.57,8.84
Nakło nad Notecią,97,PL,1632287674,91,53.1421,17.6018,46.35,4.94
Nantucket,1,US,1632287675,86,41.2835,-70.0995,70.02,10.36
Muzhi,95,RU,1632287675,78,65.3667,64.6667,42.42,5.82
Kysyl-Syr,92,RU,1632287675,48,63.8986,122.7617,53.83,12.39
Kuyanovo,88,RU,1632287676,55,55.8014,54.5372,46.08,8.55
Mogwase,0,ZA,1632287676,74,-25.185,27.2665,55.72,9.84
Altay,0,CN,1632287677,25,47.8667,88.1167,50.22,5.59
Ulladulla,8,AU,1632287677,55,-35.35,150.4667,65.88,8.3
Mackay,7,AU,1632287678,41,-21.15,149.2,74.05,15.41
Petropavl,0,KZ,1632287678,70,54.8753,69.1628,42.78,8.95
Honningsvåg,75,NO,1632287678,75,70.9821,25.9704,42.55,27.63
Novy Urengoy,39,RU,1632287679,66,66.0833,76.6333,35.56,15.73
Leningori,100,GE,1632287679,67,42.126,44.4833,63.91,5.17
Baruun-Urt,5,MN,1632287680,40,46.6806,113.2792,68.43,4.18
Dabakala,100,CI,1632287478,96,8.3667,-4.4333,71.78,3.87
San Patricio,6,US,1632287680,70,28.017,-97.5169,84.06,9.19
Korsakov,100,RU,1632287680,97,46.6328,142.7813,53.44,9.01
Ust-Maya,3,RU,1632287681,45,60.4167,134.5333,52.75,2.91
Neuquén,0,AR,1632287424,35,-38.9516,-68.0591,57.09,12.66
Alta Floresta,64,BR,1632287681,30,-9.8756,-56.0861,75.52,2.24
San Cristobal,82,VE,1632287682,95,7.7669,-72.225,64.83,2.19
Vilhena,6,BR,1632287682,29,-12.7406,-60.1458,73.9,2.37
Jacmel,73,HT,1632287682,81,18.2342,-72.5347,82.24,2.28
Kousséri,100,CM,1632287683,80,12.0769,15.0306,77.45,0.92
Labuhan,76,ID,1632287683,57,-6.8844,112.2051,86.9,10.98
Herat Province,0,AF,1632287684,19,34.5,62.0,76.71,13.29
Pemangkat,57,ID,1632287684,68,1.1667,108.9667,85.24,8.81
Yaan,100,NG,1632287685,97,7.3833,8.5667,70.5,3.6
Mount Gambier,90,AU,1632287685,82,-37.8333,140.7667,57.11,12.66
Lüderitz,5,NA,1632287686,42,-26.6481,15.1594,63.36,7.87
Bereket,0,TM,1632287686,15,39.2446,55.5154,78.15,12.66
Sadove,77,UA,1632287686,67,46.2487,30.1795,46.36,12.59
Henties Bay,0,NA,1632287687,79,-22.116,14.2845,53.85,1.25
Keetmanshoop,4,NA,1632287687,18,-26.5833,18.1333,56.48,9.51
Pucara,100,PE,1632287688,72,-15.9803,-71.4606,38.1,2.13
Touros,3,BR,1632287404,88,-5.1989,-35.4608,74.3,9.46
Luga,100,RU,1632287688,94,58.7372,29.8453,41.07,6.69
Sakakah,1,SA,1632287689,21,29.9697,40.2064,81.09,5.46
Charagua,92,BO,1632287689,86,-19.8,-63.2167,55.94,4.54
Dalby,0,AU,1632287690,11,-27.1833,151.2667,74.98,3.0
Gobabis,8,NA,1632287690,17,-22.45,18.9667,57.67,8.88
Beni Mazar,0,EG,1632287690,58,28.4962,30.8029,76.73,12.33
Chengde,0,CN,1632287691,54,40.9725,117.9361,71.74,5.39
Malanje,13,AO,1632287691,80,-9.5402,16.341,63.88,4.18
Cumpas,99,MX,1632287692,59,29.9833,-109.7833,76.44,2.48
Marsh Harbour,100,BS,1632287692,74,26.5412,-77.0636,82.49,8.16
Pangnirtung,64,CA,1632287692,58,66.1451,-65.7125,30.61,4.7
Rosário do Sul,96,BR,1632287693,81,-30.2583,-54.9142,48.9,14.14
Isla Vista,1,US,1632287693,73,34.4133,-119.861,82.67,0.0
Yulara,0,AU,1632287694,13,-25.2406,130.9889,72.97,15.17
La Ronge,89,CA,1632287694,68,55.1001,-105.2842,53.17,5.46
Tayoltita,88,MX,1632287695,71,24.0833,-105.9333,67.98,8.1
Tortosa,66,ES,1632287695,68,40.8125,0.5216,69.08,6.04
Lorengau,98,PG,1632287695,68,-2.0226,147.2712,84.65,7.23
Bilibino,100,RU,1632287696,56,68.0546,166.4372,29.32,1.45
Kalemie,87,CD,1632287696,47,-5.9475,29.1947,77.5,2.98
Anshun,18,CN,1632287697,66,26.25,105.9333,75.25,15.64
Tshikapa,62,CD,1632287697,56,-6.4167,20.8,74.86,2.08
Nordhausen,100,DE,1632287698,91,51.5167,10.8,53.55,5.41
Pāsighāt,91,IN,1632287698,80,28.0667,95.3333,80.55,1.25
Dhārchula,73,IN,1632287698,76,29.85,80.5333,76.8,2.8
Assiniboia,2,CA,1632287699,33,49.6334,-105.9845,55.18,8.9
Tynda,57,RU,1632287699,59,55.1667,124.7167,59.29,3.91
Teknāf,92,BD,1632287700,71,20.8624,92.3058,84.16,5.32
Taikang,100,CN,1632287700,92,46.8333,124.4167,53.42,21.83
Smirnykh,100,RU,1632287700,85,49.75,142.8333,53.44,3.44
Shiyan,5,CN,1632287701,47,32.6475,110.7781,87.91,5.39
Atar,5,MR,1632287703,25,20.5169,-13.0499,83.46,9.55
College,75,US,1632287703,67,64.8569,-147.8028,34.59,0.0
Pangkalanbuun,91,ID,1632287704,45,-2.6833,111.6167,91.89,4.38
Port Hawkesbury,2,CA,1632287704,93,45.6169,-61.3485,59.59,1.01
Jizan,96,SA,1632287705,37,17.3333,42.6667,96.51,4.7
Talcahuano,90,CL,1632287705,82,-36.7167,-73.1167,53.28,3.44
Rahā,69,IN,1632287706,73,26.2333,92.5167,85.62,2.24
Cochrane,90,CA,1632287706,44,51.1834,-114.4687,59.43,3.44
Vieques,40,PR,1632287707,83,18.425,-65.8329,80.62,5.75
Zanjān,0,IR,1632287707,34,36.6736,48.4787,69.62,5.79
Stykkisholmur,98,IS,1632287708,75,65.0757,-22.7297,34.75,5.59
Emerald,0,AU,1632287708,13,-23.5333,148.1667,75.61,16.78
Port Montt,90,CL,1632287709,100,-41.4698,-72.9447,47.23,1.14
Husavik,100,IS,1632287709,94,66.0449,-17.3389,33.71,19.84
Carballo,7,ES,1632287710,93,43.213,-8.691,60.91,7.18
Opuwo,9,NA,1632287710,30,-18.0607,13.84,67.78,2.73
Bambous Virieux,40,MU,1632287711,53,-20.3428,57.7575,75.45,9.22
Codogno,1,IT,1632287711,84,45.1619,9.7022,64.81,2.82
Keïta,30,NE,1632287711,61,14.7551,5.7749,82.4,7.9
Divo,99,CI,1632287712,98,5.8397,-5.36,72.34,3.42
Lompoc,1,US,1632287712,94,34.6391,-120.4579,67.21,4.61
Cap Malheureux,5,MU,1632287713,54,-19.9842,57.6142,75.69,7.0
Kajaani,90,FI,1632287713,100,64.2273,27.7285,32.05,5.75
Hinton,100,CA,1632287713,80,53.4001,-117.5857,51.84,5.08
Abhā,75,SA,1632287714,64,18.2164,42.5053,67.82,0.0
San Quintín,0,MX,1632287714,75,30.4833,-115.95,72.99,7.07
Addis Ababa,100,ET,1632287715,92,9.025,38.7469,54.3,2.73
Tadine,66,NC,1632287715,70,-21.55,167.8833,76.1,11.39
Villazón,97,BO,1632287716,80,-22.0866,-65.5942,47.05,5.32
Taoudenni,1,ML,1632287716,11,22.6783,-3.9836,91.47,12.46
Panzhihua,75,CN,1632287716,58,26.5851,101.7128,82.72,1.77
Kribi,100,CM,1632287717,91,2.95,9.9167,75.13,6.11
Novikovo,98,RU,1632287717,83,51.1537,37.8879,46.24,5.97
Adiaké,100,CI,1632287718,95,5.2863,-3.304,76.59,4.23
Pak Phanang,99,TH,1632287718,64,8.3511,100.202,91.42,10.89
Porto Belo,38,BR,1632287719,73,-27.1578,-48.5531,58.98,12.44
Akureyri,20,IS,1632287719,93,65.6835,-18.0878,33.73,4.61
Mount Isa,53,AU,1632287720,9,-20.7333,139.5,74.97,13.8
Kyzyl-Suu,0,KG,1632287720,52,42.3414,78.0056,60.94,5.82
Pokhara,100,NP,1632287704,86,28.2333,83.9833,73.18,0.47
Sinegor'ye,69,RU,1632287721,92,62.0788,150.477,36.77,1.21
Mogocha,69,RU,1632287721,58,53.7333,119.7667,62.58,7.43
Mrakovo,100,RU,1632287722,48,52.7161,56.6244,46.24,3.42
Kletskaya,94,RU,1632287722,69,49.3145,43.0584,56.34,11.48
Kemijärvi,78,FI,1632287723,85,66.7131,27.4306,32.68,7.38
Kalulushi,10,ZM,1632287723,37,-12.8378,28.0919,65.03,6.55
Ormara,62,PK,1632287724,84,25.2088,64.6357,81.93,11.63
Sangmélima,99,CM,1632287724,99,2.9333,11.9833,66.96,2.8
Salisbury,20,GB,1632287724,96,51.0693,-1.7957,51.62,1.14
Coquimbo,90,CL,1632287725,71,-29.9533,-71.3436,55.13,4.61
Gal'bshtadt,100,RU,1632287725,59,53.2264,78.9845,42.96,12.01
Linjiang,100,CN,1632287726,96,41.8069,126.9078,55.62,3.76
Bosaso,3,SO,1632287726,42,11.2842,49.1816,93.74,5.88
Mustafakemalpaşa,52,TR,1632287727,86,40.0353,28.4117,66.25,2.44
Plettenberg Bay,4,ZA,1632287727,65,-34.0527,23.3716,53.78,3.69
Ucluelet,100,CA,1632287434,85,48.9329,-125.5528,60.1,5.79
Whakatane,100,NZ,1632287728,87,-37.9585,176.9854,60.78,9.93
Vangaindrano,8,MG,1632287728,76,-23.35,47.6,71.38,9.24
Paamiut,100,GL,1632287728,56,61.994,-49.6678,36.68,5.53
Chipinge,91,ZW,1632287729,89,-20.1883,32.6236,58.15,7.2
Mersin Province,0,TR,1632287555,72,36.862,34.6509,76.35,3.38
Gizo Government Station,31,SB,1632287729,70,-8.103,156.8419,83.7,4.5
Iguape,100,BR,1632287730,74,-24.7081,-47.5553,63.95,14.97
Koumac,85,NC,1632287730,62,-20.5667,164.2833,76.6,10.87
Rome,20,US,1632287593,85,43.2128,-75.4557,69.84,5.75
Izyaslav,100,UA,1632287731,90,50.1195,26.8213,42.1,7.9
Nador,75,MA,1632287731,83,35.174,-2.9287,71.85,12.66
Mergen,100,CN,1632287732,62,49.1833,125.2167,61.45,13.56
Prokop'yevsk,100,RU,1632287732,97,53.9059,86.719,36.86,10.45
Zhoucheng,15,CN,1632287733,53,35.9122,116.3117,85.05,3.71
Lubango,20,AO,1632287733,30,-14.9172,13.4925,67.82,11.27
Tautira,5,PF,1632287733,74,-17.7333,-149.15,78.82,7.78
Itacoatiara,29,BR,1632287734,75,-3.1431,-58.4442,76.53,4.54
Jos,100,NG,1632287734,90,9.9167,8.9,65.77,3.2
Daloa,100,CI,1632287734,98,6.8774,-6.4502,71.22,4.45
Cabinda,99,AO,1632287735,85,-5.55,12.2,74.88,7.0
Ilulissat,40,GL,1632287735,80,69.2167,-51.1,26.62,2.3
Sur,12,OM,1632287736,51,22.5667,59.5289,91.58,5.55
Pochutla,93,MX,1632287736,83,15.7432,-96.4661,77.83,2.91
Viedma,0,AR,1632287736,71,-40.8135,-62.9967,47.41,12.37
Abancay,100,PE,1632287737,86,-13.6339,-72.8814,56.89,1.3
Quelimane,40,MZ,1632287737,94,-17.8786,36.8883,67.95,3.44
Bowen,25,AU,1632287738,36,-20.0167,148.2333,71.19,23.4
Koumra,100,TD,1632287738,94,8.9126,17.5539,71.85,3.13
Brae,99,GB,1632287739,92,60.3964,-1.353,57.11,29.51
Nabire,99,ID,1632287739,67,-3.3667,135.4833,84.78,3.96
Chapada dos Guimarães,4,BR,1632287739,29,-15.4606,-55.7497,76.66,3.15
Okha,69,RU,1632287740,68,53.5739,142.9478,52.88,7.18
Swellendam,0,ZA,1632287740,64,-34.0226,20.4417,43.18,3.18
Kaeo,79,NZ,1632287741,89,-35.1,173.7833,62.33,18.9
Lovozero,38,RU,1632287741,77,68.005,35.0117,38.41,6.67
Aleksandrovsk-Sakhalinskiy,100,RU,1632287741,74,50.8975,142.1561,53.02,10.47
Pacific Grove,1,US,1632287742,84,36.6177,-121.9166,71.15,1.99
Zhigansk,86,RU,1632287742,49,66.7697,123.3711,48.7,20.13
Wattegama,55,LK,1632287743,46,6.7989,81.4808,92.79,1.77
Iqaluit,90,CA,1632287743,100,63.7506,-68.5145,31.73,5.75
Port Alberni,99,CA,1632287743,89,49.2413,-124.8028,59.94,1.01
Horasan,85,TR,1632287744,51,40.0458,42.1728,58.46,2.21
Kahului,40,US,1632287744,76,20.8947,-156.47,77.02,13.8
Liwale,72,TZ,1632287745,83,-9.7667,37.9333,69.39,4.45
Gornopravdinsk,99,RU,1632287745,85,60.05,69.9,36.84,7.18
La Ligua,97,CL,1632287745,83,-32.4524,-71.2311,51.58,2.44
Roald,40,NO,1632287746,63,62.5833,6.1333,63.52,20.71
Forest Park,90,US,1632287746,95,39.2903,-84.5041,71.85,1.01
Port Augusta,0,AU,1632287747,42,-32.5,137.7667,71.71,9.93
Kaohsiung City,75,TW,1632287571,71,22.6163,120.3133,90.03,3.0
Galesong,87,ID,1632287747,62,-5.3166,119.3661,87.82,5.32
Rawson,0,AR,1632287748,37,-43.3002,-65.1023,58.14,22.84
Jutaí,75,BR,1632287748,96,-5.1833,-68.9,72.95,1.19
Maku,80,IR,1632287749,35,39.2911,44.4521,67.53,3.71
Tazovsky,13,RU,1632287749,67,67.4667,78.7,34.92,16.96
Tilichiki,100,RU,1632287749,93,60.4667,166.1,44.42,7.83
Guisa,45,CU,1632287750,93,20.255,-76.5386,77.31,2.86
Ketchikan,33,US,1632287750,92,55.3422,-131.6461,49.5,4.63
Gorkovskiy,100,RU,1632287750,77,45.6542,41.199,54.43,8.43
Kwang Binh,61,VN,1632287751,79,17.4833,106.6,83.46,6.35
Areosa,0,PT,1632287751,63,41.7178,-8.8571,64.96,5.61
Korla,5,CN,1632287752,19,41.7597,86.1469,79.84,16.26
Boguchany,100,RU,1632287752,90,58.3814,97.4531,38.19,7.92
Issoire,1,FR,1632287753,95,45.55,3.25,51.06,2.42
Hamilton,90,US,1632287607,95,39.1834,-84.5333,72.45,1.01
Ankpa,99,NG,1632287753,98,7.3706,7.6253,69.35,2.68
Gūdūr,100,IN,1632287754,46,14.1333,79.85,83.52,12.28
Kārsiyāng,41,IN,1632287754,69,26.8825,88.2773,70.79,5.48
Zhangye,27,CN,1632287755,18,38.9342,100.4517,77.99,7.18
Batatais,40,BR,1632287755,72,-20.8911,-47.585,66.18,9.6
Matagami,90,CA,1632287756,100,49.7502,-77.6328,44.71,8.05
Xochistlahuaca,78,MX,1632287756,97,16.7833,-98.25,74.23,2.48
Bereda,71,ES,1632287756,100,43.2686,-7.5406,58.91,7.02
Vila Velha,75,BR,1632287585,78,-20.3297,-40.2925,73.35,14.97
Verkhnyaya Inta,73,RU,1632287757,91,65.9811,60.3094,40.1,4.92
Uyemskiy,20,RU,1632287757,93,64.4743,40.8524,30.25,4.47
Omboué,98,GA,1632287758,85,-1.5746,9.2618,75.09,4.45
Eenhana,58,NA,1632287758,25,-17.4667,16.3333,65.95,5.39
Nansio,10,TZ,1632287758,63,-2.1333,33.05,74.93,8.41
Rincon,1,US,1632287759,99,32.296,-81.2354,78.66,0.0
Kattivākkam,100,IN,1632287760,57,13.2167,80.3167,82.49,4.23
Toamasina,40,MG,1632287760,73,-18.1667,49.3833,75.2,5.75
Petropavlovsk-Kamchatskiy,40,RU,1632287760,36,53.0452,158.6483,61.39,8.95
Mabaruma,41,GY,1632287761,94,8.2,-59.7833,73.17,1.88
Inhambane,75,MZ,1632287745,64,-23.865,35.3833,71.58,6.91
Freeport,90,US,1632287761,89,40.6576,-73.5832,73.98,3.0
Kungurtug,100,RU,1632287762,61,50.5994,97.5228,40.87,4.09
Camacha,40,PT,1632287762,68,33.0833,-16.3333,68.76,11.5
Skjervøy,100,NO,1632287763,71,70.0311,20.9714,48.2,23.17
Ballina,33,AU,1632287763,53,-28.8667,153.5667,71.78,17.56
Pogranichnyy,100,RU,1632287763,92,44.4064,131.3769,64.33,2.93
Bako,98,ET,1632287764,79,5.7833,36.5667,65.53,2.93
Vardø,45,NO,1632287764,78,70.3705,31.1107,41.2,32.3
Killybegs,20,IE,1632287765,88,54.6333,-8.45,57.45,17.02
Iseyin,100,NG,1632287765,97,7.9667,3.6,71.22,1.07
Iracoubo,83,GF,1632287766,89,5.4802,-53.2011,77.72,8.25
Erenhot,2,CN,1632287766,28,43.6475,111.9767,73.89,12.82
Edingen-Neckarhausen,0,DE,1632287766,94,49.4572,8.6064,47.28,2.3
Catuday,70,PH,1632287767,68,16.2923,119.8062,84.99,2.86
Kwinana,0,AU,1632287767,38,-32.25,115.7667,85.14,7.49
Catió,97,GW,1632287768,91,11.2833,-15.25,77.5,6.15
Grand-Lahou,100,CI,1632287768,95,5.1367,-5.0242,74.98,7.96
Forest Lake,4,US,1632287636,89,45.2789,-92.9852,54.36,6.2
Acaraú,15,BR,1632287769,86,-2.8856,-40.12,76.64,11.16
Zhezkazgan,67,KZ,1632287769,37,47.8043,67.7144,48.67,13.73
Vostok,100,RU,1632287770,98,46.4856,135.8833,53.64,2.57
Zavallya,100,UA,1632287770,73,48.2135,30.0156,46.26,11.05
Bam,0,IR,1632287771,11,29.106,58.357,89.49,4.97
Kovernino,100,RU,1632287771,73,57.1253,43.8142,42.98,13.4
